City_ID,City,Lat,Lng,Max Temp,Humidity,Cloudiness,Wind Speed,Country,Date
0,port-aux-francais,-49.35,70.2167,6.23,91,100,12.32,TF,1686589919
1,waitangi,-43.9535,-176.5597,9.34,77,100,9.19,NZ,1686589726
2,whitehorse,60.7161,-135.0538,13.9,53,66,4.47,CA,1686589758
3,praia da vitoria,38.7333,-27.0667,21.14,100,75,5.21,PT,1686589920
4,pacora,9.0833,-79.2833,33.45,66,40,2.57,PA,1686589920
5,nemuro,43.3236,145.575,10.83,99,94,3.31,JP,1686589920
6,port mathurin,-19.6833,63.4167,24.89,70,8,8.46,MU,1686589920
7,wangqing,43.3218,129.7634,12.29,96,31,0.53,CN,1686589921
8,isafjordur,66.0755,-23.124,13.02,54,20,6.69,IS,1686589921
9,jamestown,42.097,-79.2353,17.8,78,100,4.92,US,1686589768
10,mobaye,4.319,21.1786,23.27,93,70,0.66,CF,1686589921
11,longyearbyen,78.2186,15.6401,2.91,75,75,4.12,SJ,1686589921
12,ushuaia,-54.8,-68.3,6.79,81,40,18.01,AR,1686589922
13,ouadda,8.0777,22.4007,23.22,85,81,1.95,CF,1686589922
14,sunland park,31.7965,-106.58,29.25,16,0,6.17,US,1686589922
15,deschutes river woods,43.9915,-121.3584,23.78,53,0,2.68,US,1686589922
16,talnakh,69.4865,88.3972,7.34,96,100,3.91,RU,1686589922
17,kogalym,62.2654,74.4791,5.56,86,100,6.36,RU,1686589692
18,soio,-6.1349,12.3689,23.64,85,49,4.09,AO,1686589923
19,ladario,-19.0047,-57.6017,14.16,82,100,5.14,BR,1686589923
20,edinburgh of the seven seas,-37.0676,-12.3116,17.21,85,100,18.41,SH,1686589923
21,adamstown,-25.066,-130.1015,20.14,63,31,3.45,PN,1686589924
22,khandyga,62.6667,135.6,9.52,57,100,2.33,RU,1686589924
23,tofol,5.3248,163.0078,28.79,75,100,7.78,FM,1686589924
24,parasia,22.2,78.7667,29.51,46,73,3.62,IN,1686589925
25,grytviken,-54.2811,-36.5092,-3.12,88,94,3.38,GS,1686589925
26,tindouf,27.6711,-8.1474,34.25,21,0,10.29,DZ,1686589925
27,anadyr,64.75,177.4833,6.28,81,20,5.0,RU,1686589925
28,princeville,45.7668,-61.2985,25.92,58,0,7.72,CA,1686589926
29,kenai,60.5544,-151.2583,8.41,85,100,2.06,US,1686589926
30,yellowknife,62.456,-114.3525,5.31,75,87,4.47,CA,1686589835
31,bethel,41.3712,-73.414,25.36,69,75,5.14,US,1686589926
32,albany,42.6001,-73.9662,27.57,65,100,3.13,US,1686589926
33,nabire,-3.3667,135.4833,24.54,95,100,1.21,ID,1686589927
34,rio grande,-32.035,-52.0986,13.06,49,1,6.46,BR,1686589901
35,st. john's,47.5649,-52.7093,9.32,89,100,1.79,CA,1686589867
36,la'ie,21.6477,-157.9253,26.98,84,34,2.68,US,1686589927
37,sitka,57.0531,-135.33,10.94,71,75,2.57,US,1686589776
38,sungailiat,-1.85,106.1333,26.92,87,57,4.06,ID,1686589928
39,margaret river,-33.95,115.0667,14.54,81,42,6.37,AU,1686589928
40,saipan,15.1355,145.701,28.39,100,40,5.14,MP,1686589928
41,vorkuta,67.5,64.0,5.85,48,72,4.76,RU,1686589928
42,la passe,45.5549,-0.8967,21.1,85,100,3.36,FR,1686589929
43,klyuchi,52.2667,79.1667,18.86,66,60,3.35,RU,1686589929
44,crane,31.3974,-102.3501,33.62,22,0,6.69,US,1686589929
45,mikuni,36.2171,136.1519,19.63,94,97,1.54,JP,1686589929
46,bredasdorp,-34.5322,20.0403,12.13,76,87,7.3,ZA,1686589929
47,salinopolis,-0.6136,-47.3561,28.04,82,13,5.38,BR,1686589930
48,tura,25.5198,90.2201,24.33,92,14,2.59,IN,1686589930
49,ribeira grande,38.5167,-28.7,20.43,94,75,5.14,PT,1686589930
50,bilibino,68.0546,166.4372,10.92,94,100,1.73,RU,1686589930
51,morant bay,17.8815,-76.4093,33.17,71,12,6.06,JM,1686589931
52,puerto colombia,10.9878,-74.9547,32.05,75,10,4.75,CO,1686589931
53,cabo san lucas,22.8909,-109.9124,33.61,25,0,2.57,MX,1686589931
54,staraya russa,57.9944,31.3608,17.85,54,27,1.87,RU,1686589931
55,susuman,62.7833,148.1667,15.21,67,100,2.05,RU,1686589931
56,tinogasta,-28.0632,-67.5649,9.57,35,22,3.03,AR,1686589932
57,al jumum,21.6169,39.6981,34.55,20,2,4.94,SA,1686589756
58,iskateley,67.6803,53.1512,14.59,58,100,6.57,RU,1686589932
59,constitucion,-35.3333,-72.4167,10.89,51,1,3.16,CL,1686589932
60,hasaki,35.7333,140.8333,20.68,96,92,4.22,JP,1686589634
61,mount pearl,47.5166,-52.7813,8.86,88,100,6.69,CA,1686589933
62,invercargill,-46.4,168.35,9.99,90,94,3.09,NZ,1686589826
63,peniche,39.3558,-9.3811,24.49,88,71,6.06,PT,1686589933
64,puerto natales,-51.7236,-72.4875,9.25,46,40,2.06,CL,1686589933
65,lompoc,34.6391,-120.4579,18.77,82,100,0.45,US,1686589934
66,dudinka,69.4058,86.1778,7.57,75,66,5.52,RU,1686589934
67,san luis de la loma,17.2706,-100.8939,32.45,54,56,3.55,MX,1686589934
68,kokpekty,48.75,82.4,14.58,66,3,4.49,KZ,1686589934
69,tiksi,71.6872,128.8694,0.7,93,71,2.27,RU,1686589649
70,aasiaat,68.7098,-52.8699,1.07,77,27,13.94,GL,1686589935
71,coronel dorrego,-38.7187,-61.2873,10.0,46,23,6.93,AR,1686589935
72,santanyi,39.3546,3.1291,28.79,65,100,4.48,ES,1686589935
73,tazacorte,28.629,-17.9293,23.54,73,75,4.12,ES,1686589935
74,iqaluit,63.7506,-68.5145,1.85,69,75,7.15,CA,1686589935
75,enoch,37.7733,-113.0244,19.14,37,0,6.69,US,1686589861
76,cambridge,43.3601,-80.3127,17.31,96,100,4.12,CA,1686589812
77,stanley,54.868,-1.6985,23.19,66,0,4.12,GB,1686589870
78,talcahuano,-36.7167,-73.1167,10.82,58,0,6.17,CL,1686589936
79,fort bragg,35.139,-79.006,30.11,62,75,5.66,US,1686589937
80,fuyang,32.9,115.8167,24.85,53,100,3.3,CN,1686589937
81,al jubayl,27.0112,49.6583,34.25,43,0,1.77,SA,1686589937
82,porto novo,6.4965,2.6036,27.74,67,36,3.98,BJ,1686589937
83,chitipa,-9.7024,33.2697,18.83,68,83,2.2,MW,1686589938
84,vernon,50.2581,-119.2691,27.01,43,0,0.62,CA,1686589697
85,yemel'yanovo,56.1681,92.6767,13.45,67,0,3.0,RU,1686589938
86,udachny,66.4167,112.4,8.03,48,50,3.44,RU,1686589938
87,kodiak,57.79,-152.4072,8.73,66,20,3.09,US,1686589938
88,kroya,-7.6331,109.2461,24.91,90,92,2.52,ID,1686589939
89,novodvinsk,64.4165,40.8122,17.75,44,79,2.75,RU,1686589939
90,skelleftea,64.7507,20.9528,23.33,52,0,6.17,SE,1686589940
91,siem reap,13.5,104.0,26.86,83,94,3.12,KH,1686589940
92,blackmans bay,-43.0167,147.3167,8.07,83,90,3.11,AU,1686589940
93,inhambane,-23.865,35.3833,22.39,79,0,6.68,MZ,1686589941
94,kidal,18.4411,1.4078,39.91,19,15,5.01,ML,1686589941
95,afaahiti,-17.75,-149.2833,21.93,77,85,8.4,PF,1686589941
96,barnard castle,54.5415,-1.919,24.18,63,15,3.91,GB,1686589941
97,diego de almagro,-26.3667,-70.05,16.52,42,3,4.08,CL,1686589942
98,gebeit,21.0667,36.3167,31.28,24,9,6.04,SD,1686589942
99,chipinge,-20.1883,32.6236,17.32,41,11,2.11,ZW,1686589942
100,palapye,-22.546,27.1251,21.3,31,88,3.68,BW,1686589943
101,sandnessjoen,66.0217,12.6316,13.29,89,75,5.66,NO,1686589943
102,karratha,-20.7377,116.8463,20.38,37,0,2.1,AU,1686589943
103,avanigadda,16.0215,80.9181,33.92,51,84,3.39,IN,1686589943
104,bollnas,61.3482,16.3946,25.63,20,78,3.19,SE,1686589944
105,arraial do cabo,-22.9661,-42.0278,24.92,83,0,5.66,BR,1686589745
106,kulhudhuffushi,6.6221,73.07,28.86,78,100,7.55,MV,1686589944
107,atafu village,-8.5421,-172.5159,28.29,76,24,6.02,TK,1686589944
108,hamilton,39.1834,-84.5333,19.93,80,75,5.14,US,1686589523
109,puerto ayora,-0.7393,-90.3518,30.98,86,99,4.02,EC,1686589945
110,kingston,17.997,-76.7936,32.91,59,5,3.13,JM,1686589725
111,carnarvon,-24.8667,113.6333,16.38,44,0,7.8,AU,1686589945
112,konarka,19.9,86.1167,31.22,73,58,5.37,IN,1686589945
113,saurimo,-9.6608,20.3916,23.02,30,9,0.31,AO,1686589946
114,olonkinbyen,70.9221,-8.7187,1.14,86,39,4.49,SJ,1686589946
115,aral,40.5156,81.2636,30.69,19,58,11.1,CN,1686589946
116,purulha,15.2667,-90.2,25.05,35,100,1.82,GT,1686589946
117,saldanha,-33.0117,17.9442,13.03,78,82,4.49,ZA,1686589946
118,port elizabeth,-33.918,25.5701,15.16,76,20,9.77,ZA,1686589947
119,keflavik,64.0049,-22.5624,10.24,66,75,5.14,IS,1686589947
120,tawau,4.2498,117.8871,26.26,86,23,1.16,MY,1686589947
121,farafangana,-22.8167,47.8333,21.51,87,1,3.62,MG,1686589947
122,ust-nera,64.5667,143.2,14.12,94,100,2.85,RU,1686589948
123,namibe,-15.1961,12.1522,19.31,67,8,3.88,AO,1686589948
124,yass,-34.8333,148.9167,8.14,99,50,0.52,AU,1686589872
125,paragominas,-2.9667,-47.4833,31.89,54,42,1.96,BR,1686589948
126,amga,60.8953,131.9608,8.3,62,100,3.51,RU,1686589948
127,dadukou,26.5479,101.7054,16.77,95,99,0.42,CN,1686589949
128,arawa,-6.2132,155.5367,24.65,90,73,1.56,PG,1686589949
129,vilyuchinsk,52.9306,158.4028,9.5,66,0,3.81,RU,1686589949
130,minas de marcona,-15.2119,-75.1103,16.72,63,49,7.59,PE,1686589950
131,chonchi,-42.6128,-73.8092,7.56,74,11,1.67,CL,1686589951
132,westport,41.1415,-73.3579,25.74,74,75,5.14,US,1686589820
133,ilheus,-14.7889,-39.0494,27.42,60,6,2.94,BR,1686589951
134,alofi,-19.0595,-169.9187,22.94,94,75,2.06,NU,1686589951
135,susanville,40.4163,-120.653,19.34,61,100,0.89,US,1686589952
136,codrington,-38.2667,141.9667,11.84,66,94,7.69,AU,1686589952
137,punta arenas,-53.15,-70.9167,8.01,70,20,9.77,CL,1686589952
138,palmer,42.1584,-72.3287,27.54,52,75,5.66,US,1686589952
139,severo-yeniseyskiy,60.3725,93.0408,8.53,64,22,2.58,RU,1686589952
140,salmon arm,50.6998,-119.3024,26.91,48,4,0.51,CA,1686589400
141,zhaoqing,23.0512,112.4597,29.9,71,89,0.52,CN,1686589953
142,thompson,55.7435,-97.8558,11.09,82,75,5.66,CA,1686589953
143,kayangel,8.0823,134.7173,28.19,80,91,4.74,PW,1686589953
144,sisimiut,66.9395,-53.6735,0.94,83,50,11.15,GL,1686589953
145,portland,45.5234,-122.6762,24.49,66,40,2.57,US,1686589689
146,port lincoln,-34.7333,135.8667,13.46,68,43,10.2,AU,1686589954
147,sucua,-2.4667,-78.1667,28.41,61,20,4.12,EC,1686589954
148,wailua homesteads,22.0669,-159.378,22.44,92,100,5.66,US,1686589954
149,katsuura,35.1333,140.3,21.4,93,96,2.9,JP,1686589955
150,college,64.8569,-147.8028,14.21,57,75,5.66,US,1686589955
151,sinop,41.7711,34.8709,16.16,98,99,1.24,TR,1686589955
152,zhezqazghan,47.7833,67.7667,24.37,26,2,4.89,KZ,1686589955
153,kirakira,-10.4544,161.9205,26.04,87,20,2.93,SB,1686589956
154,petropavlovsk-kamchatsky,53.0452,158.6483,9.19,71,0,4.38,RU,1686589956
155,ta`u,-14.2336,-169.5144,27.56,76,45,9.31,AS,1686589956
156,nadi,-17.8,177.4167,21.0,88,20,2.06,FJ,1686589956
157,aykhal,66.0,111.5,6.61,57,52,4.16,RU,1686589956
158,morehead city,34.7229,-76.726,29.01,85,100,7.72,US,1686589791
159,al ghayzah,16.2079,52.176,29.93,80,100,5.3,YE,1686589957
160,castillos,-34.1667,-53.8333,12.77,51,11,5.85,UY,1686589957
161,abeche,13.8292,20.8324,34.34,29,79,4.15,TD,1686589958
162,amahai,-3.3333,128.9167,27.78,90,96,2.32,ID,1686589958
163,jean-rabel,19.8533,-73.1917,30.87,60,33,0.77,HT,1686589958
164,bamboo flat,11.7,92.7167,27.89,84,92,7.74,IN,1686589958
165,bel ombre,-4.6167,55.4167,26.91,74,20,7.72,SC,1686589958
166,saint-philippe,-21.3585,55.7679,22.77,82,29,2.76,RE,1686589959
167,datca,36.7378,27.6842,22.86,72,3,5.41,TR,1686589959
168,huarmey,-10.0681,-78.1522,24.19,63,53,5.63,PE,1686589959
169,dikhil,11.5,42.1667,32.82,26,84,2.89,DJ,1686589959
170,betio village,1.358,172.9211,28.02,77,63,5.44,KI,1686589959
171,papatowai,-46.5619,169.4708,9.98,91,88,4.29,NZ,1686589960
172,plastun,44.7561,136.2939,11.77,99,49,1.97,RU,1686589960
173,toliara,-23.35,43.6667,20.84,75,0,1.7,MG,1686589960
174,west island,-12.1568,96.8225,26.99,78,75,9.42,CC,1686589960
175,badger,64.8,-147.5333,14.17,54,75,5.66,US,1686589961
176,boende,-0.2167,20.8667,24.92,77,99,1.37,CD,1686589961
177,island harbour,50.724,-1.2758,24.46,80,22,1.34,GB,1686589961
178,guerrero negro,27.9769,-114.0611,19.52,65,4,7.1,MX,1686589961
179,al burayqah,30.4062,19.5739,22.75,75,0,9.15,LY,1686589962
180,tierp,60.3427,17.5181,24.42,19,76,3.62,SE,1686589962
181,luanda,-8.8368,13.2343,24.0,83,75,5.66,AO,1686589962
182,key west,24.5557,-81.7826,31.0,72,20,5.14,US,1686589894
183,utrik,11.2278,169.8474,27.7,79,73,8.65,MH,1686589962
184,georgetown,5.4112,100.3354,30.96,70,20,3.6,MY,1686589814
185,laguna,38.421,-121.4238,19.47,68,100,5.66,US,1686589963
186,kolonia,50.9333,6.95,28.84,28,0,4.63,DE,1686589963
187,avarua,-21.2078,-159.775,21.03,100,99,1.54,CK,1686589963
188,happy valley-goose bay,53.3168,-60.3315,20.17,45,40,2.57,CA,1686589964
189,abalak,58.1286,68.5944,7.04,70,63,0.3,RU,1686589964
190,aitape,-3.1374,142.3475,25.78,87,71,2.46,PG,1686589964
191,illizi,26.4833,8.4667,40.89,8,0,5.86,DZ,1686589964
192,mabaruma,8.2,-59.7833,28.14,85,99,2.25,GY,1686589965
193,hawaiian paradise park,19.5933,-154.9731,22.72,91,100,0.0,US,1686589965
194,baiti,13.745,-14.7482,39.92,22,55,1.99,SN,1686589965
195,santa ana,33.7456,-117.8678,21.14,81,100,1.54,US,1686589665
196,tlaltenango de sanchez roman,21.7833,-103.3167,31.24,19,5,0.65,MX,1686589965
197,brookings,44.3114,-96.7984,23.36,38,0,4.63,US,1686589858
198,luderitz,-26.6481,15.1594,14.51,85,0,5.1,NA,1686589966
199,hassi messaoud,31.6804,6.0729,39.92,12,0,3.09,DZ,1686589966
200,valparaiso,-33.0393,-71.6273,13.89,67,0,5.14,CL,1686589945
201,ghazni,33.5536,68.4269,23.82,21,62,1.97,AF,1686589966
202,san rafael,-34.6177,-68.3301,9.1,21,0,1.9,AR,1686589956
203,neiafu,-18.65,-173.9833,23.38,94,75,0.0,TO,1686589967
204,sosnovo,60.5514,30.2144,18.1,38,11,2.14,RU,1686589967
205,kawambwa,-9.7915,29.0791,19.0,46,65,1.12,ZM,1686589967
206,plover,44.4564,-89.544,19.47,38,100,3.6,US,1686589967
207,sechura,-5.5569,-80.8222,27.36,59,13,5.77,PE,1686589968
208,heiligenhafen,54.3667,10.9833,17.18,70,0,8.33,DE,1686589968
209,aldan,58.6031,125.3894,2.18,99,100,2.16,RU,1686589968
210,ilulissat,69.2167,-51.1,2.01,93,100,4.63,GL,1686589968
211,nong phai,15.9903,101.0618,25.84,86,99,1.96,TH,1686589969
212,ryotsu-minato,38.0833,138.4333,19.78,86,100,1.07,JP,1686589969
213,choma,-16.8065,26.9531,18.53,36,45,1.68,ZM,1686589969
214,hirara,24.8,125.2833,26.31,89,100,5.36,JP,1686589970
215,campo grande,-20.4428,-54.6464,16.75,100,75,1.54,BR,1686589719
216,vila velha,-20.3297,-40.2925,28.97,70,20,5.66,BR,1686589970
217,san patricio,28.017,-97.5169,33.37,46,5,6.85,US,1686589822
218,rice lake,45.5061,-91.7382,22.43,43,40,3.09,US,1686589875
219,kapa'a,22.0752,-159.319,23.18,92,100,5.66,US,1686589971
220,sao joao da barra,-21.6403,-41.0511,31.05,63,0,4.14,BR,1686589677
221,gorom-gorom,14.4439,-0.2361,31.99,43,100,5.2,BF,1686589877
222,lisala,2.15,21.5167,22.22,97,99,1.86,CD,1686589971
223,krasnozerskoye,53.9828,79.2374,12.43,67,82,3.96,RU,1686589972
224,regina,50.4501,-104.6178,25.06,37,40,3.58,CA,1686589948
225,antsohihy,-14.8796,47.9875,21.7,81,1,1.24,MG,1686589972
226,san matias,-16.3667,-58.4,18.41,80,100,3.34,BO,1686589877
227,istgah-e rah ahan-e garmsar,35.2346,52.3094,33.53,23,21,0.83,IR,1686589972
228,kununurra,-15.7667,128.7333,16.99,82,40,0.0,AU,1686589973
229,ruidoso,33.3317,-105.673,23.2,18,0,9.26,US,1686589973
230,qaqortoq,60.7167,-46.0333,8.83,57,96,3.36,GL,1686589973
231,bukoba,-1.3317,31.8122,21.76,70,75,2.4,TZ,1686589973
232,rosarito,32.3333,-117.0333,19.03,75,70,3.2,MX,1686589974
233,flin flon,54.7682,-101.865,24.91,53,40,2.06,CA,1686589974
234,savoy,45.5,6.4167,16.58,48,100,2.09,FR,1686589974
235,kailua-kona,19.6406,-155.9956,24.98,84,40,1.54,US,1686589974
236,murzuq,25.9155,13.9184,37.34,13,0,6.76,LY,1686589974
237,san pedro pochutla,15.7333,-96.4667,34.28,51,18,3.42,MX,1686589975
238,polyarnyy,69.1989,33.4478,16.78,44,98,6.35,RU,1686589975
239,wau,7.7029,27.9953,27.04,60,65,2.21,SS,1686589975
240,tchintabaraden,15.8969,5.7985,29.08,57,79,3.81,NE,1686589975
241,ovalle,-30.5983,-71.2003,15.97,47,0,1.64,CL,1686589975
242,kintampo,8.0563,-1.7306,26.28,77,100,0.9,GH,1686589976
243,new norfolk,-42.7826,147.0587,8.73,78,74,1.11,AU,1686589976
244,inarajan village,13.2736,144.7484,28.54,93,99,5.85,GU,1686589976
245,alaghsas,17.0187,8.0168,32.75,32,35,9.24,NE,1686589976
246,bar,49.0772,27.6826,9.58,98,100,3.81,UA,1686589977
247,bisalpur,28.3,79.8,33.09,36,23,4.27,IN,1686589977
248,mahdia,35.5047,11.0622,26.97,52,0,4.95,TN,1686589977
249,turkmenabat,39.0733,63.5786,32.2,12,1,5.13,TM,1686589977
250,kupang,-10.1667,123.5833,24.17,75,47,5.76,ID,1686589978
251,graham,47.0529,-122.2943,22.85,68,0,3.09,US,1686589978
252,ibicui,-14.8417,-39.9867,28.76,43,6,2.32,BR,1686589978
253,saudarkrokur,65.7461,-19.6394,16.15,47,98,2.3,IS,1686589979
254,chulakkurgan,43.765,69.1814,24.68,16,18,6.69,KZ,1686589979
255,birao,10.2849,22.7882,30.88,45,77,2.53,CF,1686589979
256,haiku-pauwela,20.9219,-156.3051,24.01,70,20,6.69,US,1686589979
257,puerto maldonado,-12.6,-69.1833,26.22,83,75,0.51,PE,1686589979
258,shanhaiguan,39.9988,119.7564,15.37,82,88,2.17,CN,1686589980
259,yeniseysk,58.4497,92.1703,11.85,58,39,3.23,RU,1686589980
260,bozoum,6.3193,16.3799,21.9,88,95,0.96,CF,1686589980
261,kavaratti,10.5669,72.642,29.67,77,100,8.88,IN,1686589980
262,tecozautla,20.5333,-99.6333,29.38,27,2,1.91,MX,1686589981
263,awjilah,29.1081,21.2869,35.14,21,0,11.43,LY,1686589981
264,seguela,7.9611,-6.6731,26.01,83,86,2.98,CI,1686589981
265,acarau,-2.8856,-40.12,28.22,75,43,6.5,BR,1686589944
266,taoudenni,22.6783,-3.9836,42.81,8,3,4.26,ML,1686589982
267,hithadhoo,-0.6,73.0833,28.83,72,63,2.57,MV,1686589982
268,lebu,-37.6167,-73.65,10.13,66,1,7.92,CL,1686589982
269,goure,13.9835,10.2704,35.93,29,7,0.45,NE,1686589982
270,chui,-33.6971,-53.4616,12.88,42,1,5.41,UY,1686589982
271,andergrove,-21.0833,149.1833,19.8,90,68,2.05,AU,1686589983
272,kavieng,-2.5744,150.7967,26.76,82,52,3.03,PG,1686589983
273,san antonio de pale,-1.4014,5.6325,24.89,87,100,2.85,GQ,1686589983
274,mafinga,-7.25,35.0667,25.2,35,74,1.83,TZ,1686589983
275,lukolela,-1.0605,17.1821,25.12,74,48,0.99,CD,1686589881
276,port-vila,-17.7338,168.3219,22.95,82,91,6.62,VU,1686589984
277,kwekwe,-18.9281,29.8149,20.69,30,73,2.62,ZW,1686589984
278,uturoa,-16.7333,-151.4333,27.02,69,59,9.02,PF,1686589984
279,cobija,-11.0267,-68.7692,29.34,78,27,1.72,BO,1686589985
280,san pedro de cajas,-11.2511,-75.8617,10.56,57,75,1.91,PE,1686589985
281,moose jaw,50.4001,-105.5344,26.15,25,75,3.09,CA,1686589985
282,prince rupert,54.3161,-130.3201,13.05,89,100,4.63,CA,1686589907
283,riyadh,24.6877,46.7219,38.08,13,40,4.36,SA,1686589985
284,coxim,-18.5067,-54.76,19.8,88,100,3.1,BR,1686589986
285,zambezi,-13.5432,23.1047,21.71,30,6,2.54,ZM,1686589986
286,lewisville,33.0462,-96.9942,24.63,84,100,10.29,US,1686589986
287,carqueiranne,43.0953,6.073,23.76,79,59,2.06,FR,1686589986
288,bandar abbas,27.1865,56.2808,32.99,62,7,5.14,IR,1686589987
289,nova sintra,14.8667,-24.7167,21.82,83,48,9.01,CV,1686589987
290,naha,26.2125,127.6811,26.15,94,75,6.17,JP,1686589988
291,mana,5.6592,-53.7767,28.64,78,34,3.32,GF,1686589989
292,ubatuba,-23.4339,-45.0711,26.3,56,0,1.53,BR,1686589989
293,acajutla,13.5928,-89.8275,30.14,72,86,2.56,SV,1686589989
294,papao,-17.75,-149.55,22.82,76,28,8.52,PF,1686589989
295,la ronge,55.1001,-105.2842,23.14,38,100,3.6,CA,1686589990
296,chimbote,-9.0853,-78.5783,24.14,66,47,5.52,PE,1686589635
297,usogorsk,63.4106,48.6872,13.06,90,95,2.24,RU,1686589990
298,hermanus,-34.4187,19.2345,13.22,74,91,9.86,ZA,1686589990
299,bandar-e genaveh,29.5791,50.517,32.91,48,0,1.91,IR,1686589990
300,inongo,-1.95,18.2667,24.38,71,90,0.66,CD,1686589991
301,al jawf,29.5,38.75,32.48,17,19,6.48,SA,1686589991
302,berezovyy,51.6667,135.7,9.99,92,61,1.07,RU,1686589991
303,brezina,33.0989,1.2608,36.21,10,1,8.19,DZ,1686589991
304,enriquillo,17.9,-71.2333,30.82,67,8,6.34,DO,1686589991
305,alesund,62.4723,6.1549,18.33,65,75,5.14,NO,1686589806
306,south hedland,-20.4089,118.5983,17.96,59,1,1.54,AU,1686589992
307,ancud,-41.8697,-73.8203,7.95,71,1,3.12,CL,1686589992
308,timimoun,29.2639,0.231,42.21,6,0,7.72,DZ,1686589992
309,trenggalek,-8.05,111.7167,23.9,96,98,1.66,ID,1686589993
310,al bardiyah,31.7561,25.0865,23.45,65,1,6.21,LY,1686589993
311,ambovombe,-25.1667,46.0833,20.66,83,23,5.68,MG,1686589852
312,ciudad bolivar,8.1222,-63.5497,33.68,47,36,2.63,VE,1686589993
313,smithers,54.7804,-127.1743,15.18,58,75,2.06,CA,1686589389
314,katabu,-4.9333,122.5167,23.29,89,93,1.61,ID,1686589994
315,ukata,10.8312,5.8249,26.8,68,77,2.1,NG,1686589994
316,vikhorevka,56.1201,101.1636,14.77,65,98,1.58,RU,1686589994
317,charters towers,-20.1,146.2667,17.37,92,82,4.19,AU,1686589994
318,prymors'k,46.7348,36.3443,19.3,87,65,5.9,UA,1686589994
319,mancio lima,-7.6142,-72.8958,31.04,66,75,2.06,BR,1686589995
320,feodosiya,45.0333,35.3833,19.35,88,32,3.98,UA,1686589995
321,idaho falls,43.4666,-112.0341,19.31,68,20,2.24,US,1686589995
322,hulan ergi,47.2042,123.6333,17.6,59,62,3.04,CN,1686589995
323,abatskoye,56.2875,70.4555,9.76,68,91,3.42,RU,1686589995
324,grafton,42.207,-71.6856,27.76,55,40,5.66,US,1686589996
325,cosala,24.4125,-106.6908,33.95,29,0,2.19,MX,1686589996
326,bowen,-20.0167,148.2333,18.58,95,24,2.96,AU,1686589996
327,troitsko-pechorsk,62.7084,56.1964,10.02,64,86,1.94,RU,1686589996
328,vadso,70.0744,29.7487,19.49,41,0,2.06,NO,1686589997
329,puerto princesa,9.7392,118.7353,27.2,83,100,1.86,PH,1686589997
330,katsuren-haebaru,26.3369,127.8719,26.21,100,75,2.06,JP,1686589997
331,geraldton,-28.7667,114.6,9.23,87,0,2.06,AU,1686589997
332,heihe,50.2441,127.4902,15.32,85,66,1.29,CN,1686589998
333,gwadar,25.1216,62.3254,29.69,75,34,4.2,PK,1686589998
334,taltal,-25.4,-70.4833,15.38,72,24,2.51,CL,1686589998
335,nikolina gora,55.7344,37.0414,17.32,52,7,4.09,RU,1686589998
336,shimoda,34.6667,138.95,21.17,95,89,6.02,JP,1686589999
337,alghero,40.5589,8.3181,27.05,61,0,2.57,IT,1686589999
338,holualoa,19.6228,-155.9522,22.91,86,40,1.54,US,1686589999
339,aliade,7.2964,8.487,24.96,85,100,1.1,NG,1686589999
340,howrah,22.5892,88.3103,29.0,79,40,2.06,IN,1686589999
341,mount gambier,-37.8333,140.7667,9.73,89,84,4.49,AU,1686590000
342,yonggwang-up,40.0183,127.4547,15.67,96,100,0.59,KP,1686590000
343,magong,23.5654,119.5863,26.79,86,95,3.36,TW,1686590000
344,kalix,65.853,23.1565,15.48,61,55,7.43,SE,1686590000
345,nizhnesortymskiy,62.4397,71.7603,6.48,76,100,5.13,RU,1686590001
346,ternate,0.8,127.4,27.15,81,73,0.83,ID,1686590001
347,atlantic beach,30.3344,-81.3987,31.01,64,75,4.63,US,1686590001
348,cole harbour,44.6724,-63.4751,27.68,33,75,6.17,CA,1686590001
349,qarqaraly,49.4058,75.4742,16.01,38,5,2.62,KZ,1686590002
350,utsunomiya,36.5658,139.8836,20.74,95,100,1.24,JP,1686590002
351,chake chake,-5.2459,39.7666,24.62,77,24,4.61,TZ,1686590002
352,ponta delgada,37.7333,-25.6667,19.4,94,75,8.75,PT,1686590002
353,pisco,-13.7,-76.2167,23.03,60,0,5.66,PE,1686590002
354,tilcara,-23.5776,-65.3509,9.56,29,9,2.79,AR,1686590003
355,lucapa,-8.4192,20.7447,25.69,27,80,1.33,AO,1686590003
356,rawson,-43.3002,-65.1023,10.76,37,1,5.81,AR,1686590003
357,palapag,12.5458,125.1147,25.5,86,100,1.69,PH,1686590003
358,bosobolo,4.1833,19.9,23.3,92,98,1.25,CD,1686589881
359,kuanda,56.3161,116.0806,9.55,82,88,1.71,RU,1686590004
360,fortuna,40.5982,-124.1573,12.59,96,100,1.54,US,1686589929
361,kalmunai,7.4167,81.8167,28.18,78,99,1.89,LK,1686590004
362,juan griego,11.0817,-63.9655,30.07,74,32,7.2,VE,1686590004
363,owando,-0.4819,15.8999,26.46,72,96,1.15,CG,1686590005
364,vanimo,-2.6741,141.3028,25.58,89,92,1.96,PG,1686590005
365,bousso,10.4795,16.7117,24.54,83,98,4.49,TD,1686590005
366,mar del plata,-38.0023,-57.5575,11.72,77,40,3.6,AR,1686590005
367,stephenville,32.2207,-98.2023,28.42,75,100,5.66,US,1686590006
368,ciudad lazaro cardenas,17.9583,-102.2,30.58,56,10,3.66,MX,1686590006
369,port saint john's,-31.6229,29.5448,18.31,61,54,3.73,ZA,1686590006
370,dezhou,37.4486,116.2925,23.14,37,22,2.1,CN,1686590006
371,svetlyy,54.675,20.1347,19.03,59,38,4.98,RU,1686590006
372,cooma,-36.2333,149.1333,1.42,94,3,1.34,AU,1686590007
373,cururupu,-1.8283,-44.8683,29.52,67,18,3.41,BR,1686590007
374,harper,4.375,-7.7169,26.87,74,59,4.59,LR,1686590007
375,estebania,18.4577,-70.6435,32.96,44,5,5.38,DO,1686590008
376,puerto ayacucho,5.6639,-67.6236,29.74,73,75,1.95,VE,1686590009
377,ola,59.5833,151.2833,6.75,97,100,3.25,RU,1686590009
378,enewetak,11.3474,162.3373,27.87,80,98,7.52,MH,1686590010
379,sur,22.5667,59.5289,31.54,60,100,3.07,OM,1686590010
380,port pirie,-33.1833,138.0167,11.93,81,58,5.93,AU,1686590010
381,kanggye,40.9695,126.5852,13.15,95,92,0.87,KP,1686590010
382,yunyang,33.4474,112.7142,22.65,69,100,1.18,CN,1686590011
383,naze,28.3667,129.4833,23.51,89,66,1.27,JP,1686590011
384,lauttasaari,60.1594,24.8753,22.6,48,0,5.36,FI,1686590011
385,priargunsk,50.3691,119.1012,20.07,45,93,1.77,RU,1686590012
386,koksan,38.7819,126.6664,14.72,96,87,0.42,KP,1686590012
387,tokar,18.4254,37.729,33.84,37,16,4.17,SD,1686590012
388,ceres,37.5949,-120.9577,23.22,72,75,0.0,US,1686589965
389,sal rei,16.1833,-22.9167,28.11,69,20,9.26,CV,1686590012
390,serenje,-13.2325,30.2352,15.99,51,51,2.02,ZM,1686590013
391,selfoss,63.9331,-20.9971,11.69,62,100,3.95,IS,1686590013
392,calbuco,-41.768,-73.1273,8.56,73,77,5.91,CL,1686590013
393,coahuayana de hidalgo,18.7,-103.6583,33.0,45,16,3.03,MX,1686590013
394,colonia,50.9333,6.95,28.84,28,0,4.63,DE,1686589911
395,freetown,8.484,-13.2299,26.79,81,91,3.31,SL,1686590014
396,ocean shores,46.9737,-124.1563,16.68,87,40,2.06,US,1686590014
397,borgarnes,64.5383,-21.9206,11.56,69,89,3.53,IS,1686590014
398,sturgis,41.7992,-85.4192,15.89,54,100,3.09,US,1686590015
399,rocky mountain house,52.3668,-114.9188,21.06,56,23,1.54,CA,1686590015
400,lancaster,40.2504,-76.2499,23.73,89,100,2.06,US,1686589867
401,vilyuysk,63.7553,121.6247,2.98,70,3,2.74,RU,1686590016
402,kalabo,-14.97,22.6814,21.35,28,4,0.81,ZM,1686590016
403,mulayjah,27.271,48.4242,38.87,14,2,3.11,SA,1686590016
404,mokrous,51.2333,47.5167,12.87,73,100,10.97,RU,1686590016
405,isangel,-19.55,169.2667,21.9,76,96,5.3,VU,1686590016
406,tsiombe,-25.3,45.4833,19.66,88,10,3.92,MG,1686590017
407,dryden,49.7833,-92.7503,24.16,33,0,2.06,CA,1686590017
408,kobelyaky,49.1489,34.1965,13.65,81,100,6.43,UA,1686590017
409,machico,32.7,-16.7667,22.85,78,75,4.12,PT,1686590017
410,igarka,67.4667,86.5833,7.77,82,96,3.87,RU,1686590018
411,kapuskasing,49.4169,-82.4331,21.05,52,75,4.12,CA,1686590018
412,augusto correa,-1.0217,-46.635,27.77,85,17,2.88,BR,1686590018
413,north shore,-36.8,174.75,13.23,75,0,1.34,NZ,1686590018
414,tangalle,6.024,80.7911,26.5,86,52,5.73,LK,1686590019
415,juhaynah,26.6732,31.4976,36.83,17,0,4.33,EG,1686590019
416,stepnogorsk,52.3544,71.8869,14.96,50,66,3.45,KZ,1686590019
417,yuzhno-kurilsk,44.0306,145.8556,10.61,99,72,3.74,RU,1686590019
418,strelka,58.0728,93.0344,10.38,62,6,2.23,RU,1686590019
419,iwanai,42.9744,140.5089,15.84,91,81,2.32,JP,1686590020
420,vidyayevo,69.3191,32.8049,16.23,46,98,6.02,RU,1686590020
421,tocache,-8.1842,-76.5125,29.18,61,70,0.28,PE,1686590021
422,willows,39.5243,-122.1936,23.03,56,13,1.93,US,1686590021
423,kapit,2.0167,112.9333,22.67,95,89,0.32,MY,1686590021
424,gadzhiyevo,69.2551,33.3362,16.63,44,100,6.06,RU,1686590021
425,zalari,53.5584,102.5065,13.83,97,100,0.93,RU,1686590021
426,aktau,43.65,51.2,26.32,49,3,1.78,KZ,1686590022
427,lihue,21.9789,-159.3672,22.77,91,100,5.66,US,1686589776
428,east tamworth,-31.0894,150.9436,8.77,87,75,1.54,AU,1686590022
429,nova xavantina,-14.6667,-52.35,35.11,30,0,1.37,BR,1686590022
430,byron bay,-28.65,153.6167,13.17,87,45,2.47,AU,1686589903
431,daru,-9.0763,143.2092,25.6,86,100,6.13,PG,1686590023
432,ad dilam,23.9915,47.1627,40.23,10,37,3.01,SA,1686590023
433,abraka,5.7902,6.1047,25.14,91,93,2.02,NG,1686590023
434,nar'yan-mar,67.6713,53.087,14.74,58,100,6.67,RU,1686590023
435,olyokminsk,60.3736,120.4264,3.4,70,29,1.78,RU,1686590024
436,bloomington,44.8408,-93.2983,25.74,41,40,7.2,US,1686589806
437,ritchie,-29.038,24.6028,11.56,59,56,6.26,ZA,1686590024
438,kruisfontein,-34.0033,24.7314,12.71,71,58,10.59,ZA,1686590024
439,timmins,48.4669,-81.3331,18.9,72,75,2.06,CA,1686590025
440,kerikeri,-35.2268,173.9474,7.17,93,4,2.8,NZ,1686590025
441,horta,38.5333,-28.6333,20.01,95,75,5.14,PT,1686590025
442,kendari,-3.945,122.4989,23.53,94,100,1.53,ID,1686590025
443,columbus,39.9612,-82.9988,17.48,82,100,6.17,US,1686590025
444,port augusta,-32.5,137.7667,10.75,83,50,4.17,AU,1686590026
445,tidjikja,18.5564,-11.4271,40.83,8,66,4.36,MR,1686590026
446,weno,7.4515,151.8468,28.97,79,75,1.54,FM,1686590026
447,wafangdian,39.6183,122.0081,15.38,83,75,1.23,CN,1686590026
448,howard springs,-12.497,131.047,21.95,52,40,2.14,AU,1686590027
449,nizhniy kuranakh,58.8353,125.4869,4.36,97,100,1.56,RU,1686590027
450,huangnihe,43.5583,128.0239,10.87,91,3,1.17,CN,1686590027
451,lospalos,-8.5186,127.0025,21.13,84,25,3.75,TL,1686590027
452,aoulef,26.9667,1.0833,42.96,5,0,6.58,DZ,1686590027
453,argostolion,38.1811,20.489,24.04,73,20,4.63,GR,1686590028
454,az zuwaytinah,30.9522,20.1202,24.35,63,0,9.97,LY,1686590028
455,paradip garh,20.3167,86.6167,31.34,74,66,5.96,IN,1686590028
456,queenstown,-31.8976,26.8753,10.92,53,65,7.24,ZA,1686590029
457,buka,40.8108,69.1986,28.39,32,97,2.62,UZ,1686590029
458,garoowe,8.4054,48.4845,31.25,38,100,10.89,SO,1686590029
459,motilla del palancar,39.5709,-1.9068,27.0,58,84,2.24,ES,1686590029
460,namtsy,62.7161,129.6658,4.65,65,99,5.56,RU,1686590030
461,sanya,18.2431,109.505,27.09,94,0,1.0,CN,1686590030
462,puerto deseado,-47.7503,-65.8938,6.65,57,8,10.33,AR,1686590030
463,dolbeau-mistassini,48.8763,-72.212,25.26,56,52,2.74,CA,1686590030
464,vila franca do campo,37.7167,-25.4333,19.23,95,100,6.57,PT,1686590030
465,mariental,-24.6333,17.9667,13.12,40,0,3.24,NA,1686590031
466,mejit,10.2753,170.8646,27.76,80,86,9.06,MH,1686590031
467,belmonte,-15.8631,-38.8828,26.86,63,3,3.35,BR,1686590031
468,tromso,69.6496,18.957,11.88,58,75,5.66,NO,1686590031
469,at taj,24.2049,23.2857,39.21,11,0,4.74,LY,1686590031
470,bogo,11.0517,124.0055,26.77,83,77,1.47,PH,1686590032
471,adi keyh,14.8444,39.3772,17.86,61,76,1.32,ER,1686590032
472,new river,33.9159,-112.136,26.78,30,0,3.92,US,1686590032
473,shingu,33.7333,135.9833,20.24,89,100,2.08,JP,1686590032
474,vorgashor,67.5833,63.95,5.66,49,69,4.8,RU,1686590034
475,aripuana,-9.1667,-60.6333,32.79,48,97,1.5,BR,1686590034
476,ewo,-0.8725,14.8206,26.35,75,55,1.48,CG,1686590034
477,pucheng,27.9233,118.5333,22.19,82,97,0.31,CN,1686590034
478,callao,-12.0667,-77.15,24.16,57,20,7.72,PE,1686589858
479,turaif,31.6725,38.6637,28.14,16,0,5.14,SA,1686590035
480,bijie,27.3125,105.2942,13.76,85,100,1.26,CN,1686590035
481,lerwick,60.1545,-1.1494,15.0,87,100,1.66,GB,1686590036
482,gracemere,-23.4333,150.45,13.95,94,75,0.0,AU,1686590036
483,imperatriz,-5.5264,-47.4917,34.03,55,40,6.69,BR,1686590036
484,qarauyl,48.9451,79.255,15.34,37,56,3.66,KZ,1686590036
485,quellon,-43.1167,-73.6167,9.14,66,20,3.09,CL,1686590037
486,chernyshevskiy,63.0128,112.4714,4.45,57,0,0.41,RU,1686590037
487,port alfred,-33.5906,26.891,15.1,70,58,3.13,ZA,1686590037
488,belyye berega,53.2085,34.6641,18.1,54,45,5.38,RU,1686590037
489,cockburn town,21.4612,-71.1419,28.05,85,66,9.2,TC,1686590037
490,ulanhot,46.0833,122.0833,16.92,63,30,1.31,CN,1686589889
491,robore,-18.3333,-59.75,10.01,90,100,2.84,BO,1686590038
492,masterton,-40.9597,175.6575,4.34,96,4,1.06,NZ,1686590038
493,agat village,13.3886,144.6585,28.52,87,40,3.6,GU,1686590038
494,korla,41.7597,86.1469,31.32,19,60,7.27,CN,1686590038
495,sorsk,54.0033,90.2467,10.46,83,55,2.28,RU,1686590039
496,port isabel,26.0734,-97.2086,33.05,69,20,8.23,US,1686590039
497,sao vicente,-23.9631,-46.3919,31.82,73,75,3.95,BR,1686590039
498,coquimbo,-29.9533,-71.3436,12.85,71,20,4.12,CL,1686589995
499,outjo,-20.1167,16.15,15.75,15,0,4.64,NA,1686590040
500,tokat,40.4167,36.5833,12.12,96,99,2.68,TR,1686590040
501,okha,53.5739,142.9478,4.93,98,100,1.79,RU,1686590040
502,severnoye,56.3491,78.3619,8.87,70,12,3.28,RU,1686590040
503,okhotsk,59.3833,143.3,6.64,96,95,3.04,RU,1686590041
504,gaigeturi,33.4644,126.3183,21.03,94,75,0.51,KR,1686590041
505,barcelos,41.5388,-8.6151,24.95,65,50,3.08,PT,1686589798
506,itoman,26.1247,127.6694,26.21,94,75,6.17,JP,1686590041
507,timbuktu,16.7735,-3.0074,39.85,22,8,0.5,ML,1686590042
508,formosa do rio preto,-11.0483,-45.1931,33.9,26,0,3.34,BR,1686590042
509,northam,51.0333,-4.2167,18.55,88,78,3.42,GB,1686590042
510,sabang,5.8933,95.3214,28.84,76,27,7.74,ID,1686590042
511,mugia,43.1041,-9.2179,19.39,88,96,3.31,ES,1686590043
512,griffith,41.5284,-87.4237,18.97,57,100,6.17,US,1686590043
513,artigas,-30.4,-56.4667,12.32,32,2,5.01,UY,1686589753
514,wewak,-3.5534,143.6268,26.72,88,96,3.99,PG,1686590043
515,tshabong,-26.05,22.45,12.68,48,1,4.6,BW,1686590043
516,yulinshi,38.2906,109.7494,21.24,25,0,3.34,CN,1686590044
517,dabhol,17.6,73.1667,27.63,79,32,6.9,IN,1686590044
518,buarcos,40.166,-8.8768,23.7,84,85,3.13,PT,1686590044
519,labytnangi,66.6572,66.4183,7.08,49,2,3.44,RU,1686590044
520,akjoujt,19.6969,-14.4164,41.34,9,87,6.03,MR,1686590045
521,buala,-8.145,159.5921,26.68,84,51,1.42,SB,1686590045
522,mariinsk,56.2139,87.7472,11.74,94,78,2.3,RU,1686590045
523,galle,6.0367,80.217,27.16,86,71,6.09,LK,1686590045
524,tarko-sale,64.9225,77.785,4.32,91,99,8.4,RU,1686590045
525,remire-montjoly,4.9167,-52.2667,31.02,62,20,5.14,GF,1686590046
526,turkmenbasy,40.0222,52.9552,25.43,65,0,4.12,TM,1686590046
527,saint-joseph,-21.3667,55.6167,22.21,82,18,2.83,RE,1686590046
528,nicoya,10.1483,-85.452,31.34,65,81,1.43,CR,1686590046
529,lucas,41.6501,-83.6666,17.83,69,100,3.09,US,1686589949
530,punta alta,-38.8759,-62.0736,12.82,43,2,5.66,AR,1686590016
531,tullahoma,35.362,-86.2094,20.81,79,100,1.54,US,1686590047
532,dunedin,-45.8742,170.5036,10.45,80,94,4.02,NZ,1686589804
533,ventspils,57.3894,21.5606,19.96,32,0,5.14,LV,1686590047
534,borkum,53.5809,6.6915,17.97,74,51,6.4,DE,1686590047
535,swiecie,53.4095,18.4474,23.76,14,11,3.58,PL,1686590048
536,melfort,52.8667,-104.6177,26.07,36,50,3.09,CA,1686590048
537,warwick,41.7001,-71.4162,26.54,73,75,4.12,US,1686589886
538,rongelap,11.1635,166.8941,27.64,81,64,8.5,MH,1686590048
539,arteche,12.2645,125.4048,25.89,87,99,1.33,PH,1686590049
540,puerto lempira,15.2667,-83.7667,30.75,71,46,3.92,HN,1686590019
541,port shepstone,-30.7414,30.455,17.79,64,61,3.82,ZA,1686590049
542,nagqu,31.5,92.0,6.04,78,100,3.84,CN,1686590049
543,prineville,44.2999,-120.8345,25.06,51,0,3.6,US,1686590049
544,shubarshi,48.5872,57.1869,27.08,20,100,4.72,KZ,1686590050
545,roses,42.262,3.1769,27.45,66,52,1.79,ES,1686590050
546,tavricheskoye,54.5851,73.6395,14.95,59,26,3.13,RU,1686590050
547,fisterra,42.9049,-9.2629,19.3,87,99,2.41,ES,1686590050
548,monrovia,6.3005,-10.7969,28.87,85,100,3.87,LR,1686590050
549,kiruna,67.8557,20.2251,12.51,58,100,9.26,SE,1686590051
550,treinta y tres,-33.2333,-54.3833,11.96,34,0,6.5,UY,1686590051
551,harstad,68.799,16.5293,12.86,69,94,9.83,NO,1686590051
552,harar,9.3094,42.1258,18.5,73,99,1.51,ET,1686590051
553,fale old settlement,-9.3852,-171.2468,28.37,77,54,6.38,TK,1686590052
554,la cruz,23.9167,-106.9,30.1,50,0,2.71,MX,1686590052
555,xai-xai,-25.0519,33.6442,21.78,51,0,3.35,MZ,1686590052
556,sergeyevka,53.88,67.4158,14.57,44,86,2.16,KZ,1686590052
557,ketovo,55.355,65.3258,11.24,51,89,2.31,RU,1686590052
558,anqiu,36.4342,119.1925,20.87,61,27,3.01,CN,1686590053
559,indianola,41.3581,-93.5574,22.71,40,0,3.07,US,1686590053
560,pont rouge,48.8833,-72.0825,25.06,50,44,2.73,CA,1686590053
561,yelizovo,53.1873,158.3805,7.08,81,0,4.0,RU,1686590053
562,east london,-33.0153,27.9116,14.52,72,0,5.14,ZA,1686590053
563,sampit,-2.5333,112.95,24.34,97,100,1.03,ID,1686590054
564,dalai,45.5,124.3,17.55,61,89,0.58,CN,1686590054
565,pasuquin,18.3328,120.6177,25.97,89,40,5.14,PH,1686590054
566,swift current,50.2834,-107.8014,23.45,35,0,2.57,CA,1686590054
567,elverum,60.8819,11.5623,23.84,29,69,4.55,NO,1686590055
568,leninskoye,41.7589,69.3864,23.64,49,91,3.58,KZ,1686590055
569,kudahuvadhoo,2.6708,72.8944,28.88,77,88,6.95,MV,1686590055
570,el granada,37.5027,-122.4694,20.45,75,75,5.14,US,1686590056
571,at-bashi,41.1702,75.8106,14.75,73,100,0.54,KG,1686590056
572,tyukhtet,56.5389,89.3011,12.49,74,59,3.44,RU,1686590056
573,kristiansund,63.1115,7.732,17.03,62,0,4.63,NO,1686590056
574,hailey,43.5196,-114.3153,19.93,60,40,1.34,US,1686590057
575,turkestan,43.3333,68.25,29.05,11,5,12.01,KZ,1686590057
576,sparks,39.5349,-119.7527,17.1,79,100,0.0,US,1686590057
577,saint-paul,-21.0096,55.2707,23.06,95,6,1.93,RE,1686589960
578,san miguel,13.4833,-88.1833,34.36,52,37,1.2,SV,1686590058
579,huetamo de nunez,18.5833,-100.8833,38.03,25,23,0.95,MX,1686590058
580,nova vicosa,-17.8919,-39.3719,27.3,62,3,5.27,BR,1686590058
581,yayva,59.3303,57.2641,6.77,69,75,1.4,RU,1686590058
582,emerald,-23.5333,148.1667,16.54,70,40,2.45,AU,1686590058
583,eraan,9.0629,117.7016,26.25,87,98,1.32,PH,1686590059
584,cambria,35.5641,-121.0808,17.53,71,87,1.75,US,1686590059
585,el calafate,-50.3408,-72.2768,2.81,70,92,4.23,AR,1686590059
586,los frentones,-26.4077,-61.4137,10.4,35,100,3.31,AR,1686590059
587,mahibadhoo,3.7833,72.9667,28.87,78,36,7.22,MV,1686590060
588,yeroham,30.9872,34.9314,24.4,42,1,5.33,IL,1686590060
589,makueni boma,-1.8041,37.6203,20.72,51,82,1.9,KE,1686590060
590,graaff-reinet,-32.2522,24.5308,12.73,50,34,3.53,ZA,1686590060
591,kolonia town,6.964,158.206,28.0,83,100,2.06,FM,1686590061
592,tual,-5.6667,132.75,27.22,81,91,9.45,ID,1686590061
593,chul'man,56.8479,124.9104,4.98,94,100,5.29,RU,1686590061
594,sumy,50.9216,34.8003,10.65,79,100,6.48,UA,1686590061
595,cataingan,12.003,123.992,27.23,82,100,3.66,PH,1686590062
596,san,13.3034,-4.8956,32.15,46,55,1.75,ML,1686590042
597,caucete,-31.6518,-68.2811,12.69,23,0,2.74,AR,1686590062
598,naama,33.2667,-0.3167,33.63,9,2,6.37,DZ,1686590062
599,constantia,44.1833,28.65,21.5,65,72,6.21,RO,1686590062
600,ha'il,27.5219,41.6907,31.23,16,0,6.78,SA,1686589815
601,alta,69.9689,23.2717,16.59,29,0,6.69,NO,1686590063
602,gogosu,44.3739,22.5931,19.34,86,99,2.15,RO,1686590063
603,helensburgh,56.0061,-4.7265,27.9,51,54,2.76,GB,1686590063
604,saynshand,44.8824,110.1163,22.39,24,34,3.37,MN,1686590064
605,uyar,55.81,94.3153,11.32,82,100,1.42,RU,1686590064
606,magadan,59.5667,150.8,6.41,97,98,2.33,RU,1686590064
607,tazovsky,67.4667,78.7,1.35,98,100,5.81,RU,1686590064
608,bakhmach,51.1808,32.7569,11.8,68,100,7.73,UA,1686590065
609,bardai,11.65,7.2333,27.39,59,74,5.63,NG,1686590065
610,roma,43.2128,-75.4557,25.37,69,75,6.17,US,1686590065
611,manokwari,-0.8667,134.0833,25.27,87,100,2.15,ID,1686589970
612,ugoofaaru,5.6667,73.0,28.77,79,100,7.72,MV,1686590065
613,kourou,5.1552,-52.6478,31.03,71,37,3.86,GF,1686590066
614,shakhtersk,48.0625,38.5167,16.19,88,100,3.16,UA,1686590066
615,arafat,21.3594,39.9664,35.59,17,6,5.59,SA,1686590066
616,fort-shevchenko,44.5086,50.263,27.65,41,6,2.96,KZ,1686590066
617,alpena,45.0617,-83.4327,13.18,84,100,5.14,US,1686590066
618,kisangani,0.5167,25.2,25.96,69,80,0.37,CD,1686590067
619,tadine,-21.55,167.8833,20.28,72,45,5.54,NC,1686590067
620,yaren,-0.5472,166.916,28.34,76,81,3.99,NR,1686590067
621,pacific grove,36.6177,-121.9166,17.23,80,75,3.58,US,1686590067
622,civril,38.3014,29.7386,18.81,70,82,1.13,TR,1686590068
623,albertina,-22.2008,-46.6158,24.78,36,0,2.99,BR,1686590068
624,margate,51.3813,1.3862,21.6,71,33,5.01,GB,1686590068
625,sakata,38.9167,139.855,19.6,91,100,2.05,JP,1686590068
626,villa gesell,-37.2639,-56.973,12.25,53,64,7.55,AR,1686590068
627,umm al quwain city,25.5647,55.5552,35.01,61,95,3.37,AE,1686590069
628,zarechnyy,53.2036,45.1923,9.33,82,100,5.91,RU,1686589993
629,dubbo,-32.25,148.6167,8.07,93,75,4.63,AU,1686590069
630,naliya,23.2667,68.8333,30.43,64,99,10.6,IN,1686590069
631,shetpe,44.1667,52.1167,32.15,10,9,3.77,KZ,1686590069
632,luba,3.4568,8.5547,26.94,83,98,2.31,GQ,1686590070
633,hounde,11.5,-3.5167,34.96,34,54,3.14,BF,1686590070
634,tete,-16.1564,33.5867,22.05,68,0,0.51,MZ,1686590070
635,pontianak,-0.0333,109.3333,25.99,94,40,1.54,ID,1686590070
636,isiro,2.7739,27.616,20.77,92,96,1.43,CD,1686590070
637,yarkovo,57.4028,67.0786,9.17,57,71,2.07,RU,1686590071
638,ketchikan,55.3422,-131.6461,14.26,82,75,0.0,US,1686590071
639,zhalantun,48.0,122.7167,16.28,71,68,2.06,CN,1686590071
640,newman,37.3138,-121.0208,21.7,47,70,0.48,US,1686590071
641,sibut,5.718,19.0739,23.03,88,95,1.64,CF,1686590072
642,akwanga,8.9167,8.3833,23.33,89,100,1.79,NG,1686590072
643,uddevalla,58.3478,11.9424,23.43,39,31,1.34,SE,1686590072
644,patong,7.8961,98.2966,26.08,79,76,1.42,TH,1686590072
645,sarnia,42.9787,-82.4041,14.41,86,100,7.2,CA,1686589997
646,bubaque,11.2833,-15.8333,27.61,79,85,4.56,GW,1686590073
647,conduaga,8.862,117.4893,26.61,83,94,1.33,PH,1686590073
648,kirakat,25.6333,82.9167,35.04,19,40,1.34,IN,1686590073
649,bikenibeu village,1.3673,173.1241,27.98,83,20,2.06,KI,1686590073
650,inari,68.906,27.0288,19.11,45,100,5.07,FI,1686590074
651,warman,52.3168,-106.5679,25.95,44,20,3.09,CA,1686590074
652,antigonish,45.6169,-61.9986,26.19,78,6,3.98,CA,1686590074
653,nsanje,-16.92,35.262,23.43,45,15,1.34,MW,1686590074
654,thunder bay,48.4001,-89.3168,19.99,40,40,3.09,CA,1686590074
655,tionk essil,12.7856,-16.5217,31.49,54,85,5.13,SN,1686590075
656,necocli,8.4234,-76.786,29.61,76,94,0.45,CO,1686590075
657,sola,-13.8833,167.55,26.7,76,66,7.55,VU,1686590075
658,haffouz,35.6324,9.6762,31.57,23,14,5.67,TN,1686590075
659,la mitra,8.8422,-79.7867,32.95,89,52,1.34,PA,1686590076
660,venta de banos,41.9371,-4.4645,20.79,67,89,2.24,ES,1686590076
661,kuta,-8.7233,115.1723,26.97,88,20,6.71,ID,1686590061
662,lampasas,31.2168,-98.2336,33.33,56,0,2.57,US,1686590076
663,tianshui,34.5439,105.6897,14.0,70,0,1.42,CN,1686590076
664,nakamura,32.9833,132.9333,19.94,98,100,0.99,JP,1686590077
665,nadym,65.5333,72.5167,3.79,78,100,8.36,RU,1686590077
666,maragogi,-9.0122,-35.2225,26.93,76,13,4.01,BR,1686590077
667,tuba city,36.135,-111.2399,19.93,24,2,6.42,US,1686590077
668,juneau,58.3019,-134.4197,11.0,90,75,5.14,US,1686589901
669,kittila,67.6647,24.8936,18.08,42,0,6.69,FI,1686590078
670,iquique,-20.2208,-70.1431,21.02,67,38,2.79,CL,1686590056
671,sa pa,22.3402,103.8441,17.84,94,99,0.31,VN,1686590078
672,lengshuitan,26.4111,111.5956,23.52,72,100,2.23,CN,1686590078
673,saltillo,25.4167,-101.0,34.05,19,0,0.0,MX,1686590040
674,falesti,47.5736,27.7092,13.97,74,98,4.64,MD,1686590079
675,wad medani,14.4012,33.5199,34.24,38,45,0.92,SD,1686590079
676,hachinohe,40.5,141.5,17.1,94,75,1.03,JP,1686590079
677,ujae,8.9322,165.7642,28.49,73,69,8.96,MH,1686590080
678,embarcacion,-23.209,-64.096,15.12,46,100,3.33,AR,1686590080
679,port douglas,-16.4833,145.4667,21.22,84,48,1.84,AU,1686590080
680,nizhneudinsk,54.9076,99.0276,10.39,97,100,1.57,RU,1686590080
681,ambodifotatra,-16.9833,49.85,24.98,73,1,3.43,MG,1686590081
682,myitkyina,25.3833,97.4,23.19,96,93,1.14,MM,1686590081
683,hauterive,46.0901,3.4459,17.42,94,92,3.62,FR,1686590081
684,sydney mines,46.2367,-60.2177,25.14,63,75,4.63,CA,1686590081
685,al mindak,20.1588,41.2834,26.78,35,40,0.43,SA,1686590082
686,curanilahue,-37.4667,-73.35,12.49,51,0,1.62,CL,1686590082
687,gifford,27.6753,-80.4092,33.91,58,20,4.12,US,1686590082
688,erenhot,43.6475,111.9767,20.86,33,54,2.9,CN,1686590082
689,sungai raya,0.7,108.9,26.53,83,98,2.21,ID,1686590082
690,rudbar,30.15,62.6,34.95,11,0,4.45,AF,1686590083
691,coldwater,41.9403,-85.0005,16.65,63,100,3.09,US,1686590083
692,yinchuan,38.4681,106.2731,22.43,24,28,2.32,CN,1686589878
693,oroqen zizhiqi,50.5667,123.7167,15.52,68,46,1.2,CN,1686590083
694,ulladulla,-35.35,150.4667,11.05,72,38,2.24,AU,1686590084
695,fort st. john,56.2499,-120.8529,15.94,59,75,2.57,CA,1686589987
696,xilin hot,43.9667,116.0333,13.91,64,20,1.59,CN,1686590084
697,mozarlandia,-14.7447,-50.5706,35.29,25,0,2.07,BR,1686589879
698,tolanaro,-25.0319,46.9987,20.0,91,21,2.39,MG,1686590085
699,gulu,2.7746,32.299,20.91,79,87,0.82,UG,1686590085
700,kumi,36.1136,128.336,19.75,91,76,0.22,KR,1686590085
701,blackwater,-23.5833,148.8833,15.03,82,9,2.71,AU,1686590085
702,tacna,-18.0056,-70.2483,17.11,68,75,1.54,PE,1686590085
703,whitby,54.4877,-0.615,22.25,66,29,1.34,GB,1686590086
704,alma,48.5501,-71.6491,26.72,47,87,0.79,CA,1686590086
705,sao joao do piaui,-8.3581,-42.2467,35.17,29,1,4.42,BR,1686590086
706,nguigmi,14.2495,13.1092,33.08,47,4,3.82,NE,1686590086
707,shenandoah,30.4013,-91.0009,32.78,69,65,1.34,US,1686590087
708,presidente medici,-11.1753,-61.9014,27.94,83,45,0.83,BR,1686590087
709,kalemie,-5.9475,29.1947,23.47,67,27,0.6,CD,1686590087
710,banda aceh,5.5577,95.3222,27.0,82,15,5.03,ID,1686590087
711,egilsstadir,65.2653,-14.3948,16.92,46,33,3.49,IS,1686590087
712,ouarzazat,30.9189,-6.8934,36.16,6,20,2.57,MA,1686590088
713,fairbanks,64.8378,-147.7164,14.22,56,75,5.66,US,1686589996
714,noyabrsk,63.1994,75.4507,2.51,96,100,9.41,RU,1686590088
715,usol'ye,59.4268,56.6808,7.54,68,72,1.43,RU,1686590088
716,malax,62.9423,21.5731,19.56,39,0,5.14,FI,1686590088
717,waddan,29.1614,16.139,33.18,25,0,7.96,LY,1686590089
718,hell-ville,-13.4,48.2667,26.54,68,1,2.32,MG,1686590089
719,bantogon,6.5333,124.0333,25.73,86,66,1.66,PH,1686590089
720,saryozek,44.3583,77.9753,16.59,29,76,1.23,KZ,1686590089
721,poronaysk,49.2167,143.1167,8.14,99,100,2.73,RU,1686590090
722,sao miguel do araguaia,-13.275,-50.1628,33.37,31,58,3.23,BR,1686590090
723,jatai,-17.8814,-51.7144,31.01,31,11,3.2,BR,1686590090
724,sterling,39.0062,-77.4286,24.74,80,100,4.12,US,1686589792
725,bay roberts,47.5999,-53.2648,9.52,82,100,3.13,CA,1686590091
726,mirny,62.5353,113.9611,6.8,52,0,1.79,RU,1686590091
727,broken hill,-31.95,141.4333,11.28,53,16,7.04,AU,1686589973
728,nuuk,64.1835,-51.7216,3.34,93,100,11.32,GL,1686590091
729,usinsk,65.9939,57.5281,8.36,58,93,5.73,RU,1686590091
730,palikir - national government center,6.9248,158.1611,27.41,83,100,2.06,FM,1686590092
731,bazarak,35.3129,69.5152,19.81,59,85,2.23,AF,1686590092
732,francavilla al mare,42.4206,14.287,25.48,61,18,2.06,IT,1686590092
733,guli,28.8833,120.0333,23.24,90,99,1.32,CN,1686590092
734,haldibari,26.3333,88.7667,28.11,77,27,1.06,IN,1686590093
735,sant'antioco,39.0664,8.4522,24.1,67,87,4.38,IT,1686590093
736,kone,-21.0595,164.8658,17.92,78,0,1.71,NC,1686590093
737,ukiah,39.1502,-123.2078,25.76,69,0,4.12,US,1686590013
738,dzilam gonzalez,21.2833,-88.9333,37.56,41,3,1.15,MX,1686590093
739,hotan,37.0997,79.9269,30.03,16,46,3.86,CN,1686590094
740,bela vista,-22.1089,-56.5211,10.69,96,100,3.49,BR,1686590094
741,greymouth,-42.4667,171.2,6.85,90,70,2.54,NZ,1686590094
742,qamdo,31.1667,97.2333,6.62,71,100,2.8,CN,1686590094
743,bodaybo,57.8506,114.1933,9.08,73,89,1.52,RU,1686590094
744,pandan,14.0453,124.1694,27.58,82,99,4.0,PH,1686590095
745,luau,-10.7073,22.2247,22.78,32,31,1.51,AO,1686590095
746,tucacas,10.7906,-68.3258,30.16,68,71,6.43,VE,1686590095
747,puerto madero,14.7208,-92.4215,32.11,70,20,2.57,MX,1686590095
748,alice springs,-23.7,133.8833,7.75,61,40,1.54,AU,1686589808
749,tenosique,17.4833,-91.4333,40.37,29,49,1.33,MX,1686590096
750,tannum sands,-23.9504,151.3693,16.53,88,1,2.06,AU,1686589680
751,lamu,-2.2717,40.902,27.12,80,55,6.64,KE,1686590096
752,kralendijk,12.15,-68.2667,32.99,58,75,8.75,BQ,1686590097
753,crucecita,-28.95,-58.9833,13.81,24,2,4.93,AR,1686590097
754,mersa matruh,31.3525,27.2453,23.47,69,3,4.27,EG,1686590097
755,suoyarvi,62.0833,32.35,17.19,45,51,3.52,RU,1686590097
756,deqen,29.9618,90.7188,13.82,65,91,0.63,CN,1686590098
757,kuala belait,4.5833,114.1833,25.09,82,100,0.69,BN,1686590098
758,camana,-16.6228,-72.7111,19.81,72,63,4.56,PE,1686590098
759,bali chak,22.3667,87.55,30.94,76,92,5.44,IN,1686590098
760,dhidhdhoo,6.8833,73.1,28.94,78,100,7.38,MV,1686590027
761,petrich,41.4,23.2167,22.57,75,71,1.41,BG,1686590099
762,kharp,66.8014,65.8081,6.56,56,5,2.72,RU,1686590099
763,laojunmiao,39.8333,97.7333,19.83,24,34,5.62,CN,1686590099
764,morococha,-11.5997,-76.1411,8.63,49,59,2.79,PE,1686590099
765,willowmore,-33.2926,23.4895,9.86,67,87,4.26,ZA,1686590099
766,xam nua,20.4197,104.0439,20.79,97,99,1.16,LA,1686590100
767,solnechnyy,50.7214,136.6319,9.26,86,1,1.65,RU,1686590100
768,linqiong,30.4159,103.4609,27.9,63,81,0.71,CN,1686590100
769,sinabang,2.4803,96.3801,27.07,79,55,0.78,ID,1686590100
770,santa isabel,-23.3156,-46.2214,27.61,40,0,2.4,BR,1686590101
771,chibougamau,49.9168,-74.3659,23.79,35,0,1.54,CA,1686590101
772,churachandpur,24.3333,93.6667,19.79,95,98,0.67,IN,1686590101
773,gadani,25.1185,66.7299,32.12,56,73,5.06,PK,1686590101
774,chico,39.7285,-121.8375,24.01,64,20,3.6,US,1686590088
775,lorengau,-2.0226,147.2712,27.36,83,58,3.84,PG,1686590102
776,pimentel,-6.8367,-79.9342,27.16,57,0,7.72,PE,1686590103
777,san ignacio de velasco,-16.3667,-60.95,18.66,62,73,4.42,BO,1686590103
778,malango,-2.9627,119.9001,19.1,98,92,0.79,ID,1686590103
779,al mijlad,11.0333,27.7333,35.47,30,27,1.96,SD,1686590104
780,sicuani,-14.2694,-71.2261,13.42,44,90,3.67,PE,1686590104
781,chenzhou,25.8,113.0333,23.96,85,84,1.21,CN,1686590104
782,al balyana,26.2357,32.0035,37.09,16,0,4.08,EG,1686590105
783,santa rita,-7.1139,-34.9781,29.37,70,75,5.66,BR,1686590105
784,xianning,29.8833,114.2167,23.52,85,99,2.44,CN,1686590105
785,mercedes,-34.6515,-59.4307,13.3,51,3,3.08,AR,1686590105
786,letpandan,17.7833,95.75,26.57,77,97,2.85,MM,1686590106
787,manta,-0.95,-80.7333,26.67,89,100,8.05,EC,1686590106
788,kibale,0.8,31.0667,17.59,91,88,1.02,UG,1686590106
789,khash,28.2211,61.2158,30.19,15,39,5.11,IR,1686590106
790,nuku'alofa,-21.1333,-175.2,18.19,100,20,1.03,TO,1686590106
791,mpwapwa,-6.35,36.4833,20.85,68,68,3.51,TZ,1686590107
792,divrigi,39.371,38.1137,21.17,52,98,1.66,TR,1686590107
793,lanxi,29.2195,119.477,23.16,89,97,1.45,CN,1686590107
794,kuruman,-27.4524,23.4325,10.55,65,0,6.61,ZA,1686590108
795,abra pampa,-22.7205,-65.697,13.46,9,3,6.11,AR,1686590108
796,solwezi,-12.1688,26.3894,20.91,39,64,1.55,ZM,1686590108
797,mora,11.0461,14.1401,31.67,45,97,3.23,CM,1686590095
798,lively,46.4334,-81.1498,15.01,94,100,4.24,CA,1686590108
799,south grafton,-29.7,152.95,8.04,96,18,1.2,AU,1686590109
800,chinsali,-10.5414,32.0816,19.3,54,84,2.44,ZM,1686590109
801,gannan,47.9147,123.5031,17.95,62,97,1.62,CN,1686590109
802,kerema,-7.9631,145.7785,24.72,92,62,3.48,PG,1686590109
803,mumford,5.2618,-0.759,26.94,70,98,3.89,GH,1686590110
804,tejen,37.3834,60.5054,32.36,8,1,4.17,TM,1686590110
805,bolondron,22.7633,-81.4469,25.11,47,15,4.82,CU,1686590110
806,ceeldheer,3.8488,47.1806,26.37,81,76,11.26,SO,1686590110
807,kanniyakumari,8.0833,77.5667,27.69,80,84,8.6,IN,1686590110
808,rudsar,37.1376,50.288,24.99,87,2,1.92,IR,1686590111
809,paoua,7.2427,16.4406,21.39,94,100,2.72,CF,1686590111
810,tallahassee,30.4383,-84.2807,30.93,62,75,4.12,US,1686589499
811,burang,30.25,81.1667,7.16,79,66,2.24,CN,1686589937
812,pierre,44.3683,-100.351,23.51,41,0,1.54,US,1686589893
813,wynyard,-41.0,145.7167,11.66,83,100,5.4,AU,1686590112
814,newnham,-41.3833,147.1333,8.15,96,75,0.45,AU,1686590112
815,hove,50.8309,-0.1672,26.86,83,86,3.09,GB,1686590097
816,urzhar,47.093,81.6294,16.7,48,1,4.75,KZ,1686590112
817,al kharijah,25.4514,30.5464,36.77,16,1,4.06,EG,1686590113
818,tomatlan,19.9333,-105.25,32.05,51,22,3.34,MX,1686590113
819,cofradia,15.4,-88.15,37.18,39,58,1.14,HN,1686590113
820,tingi,-11.3,35.0333,16.32,69,11,1.17,TZ,1686590113
821,chokwe,-24.5333,32.9833,22.58,38,0,3.09,MZ,1686590113
822,knyaze-volkonskoye,48.4642,135.4567,15.19,93,100,2.24,RU,1686590114
823,lamas,-6.4167,-76.5333,28.26,50,23,1.25,PE,1686590114
824,moravska trebova,49.7579,16.6643,19.0,66,100,4.41,CZ,1686590114
825,brazzaville,-4.2658,15.2832,26.35,75,83,1.91,CG,1686590115
826,teknaf,20.8624,92.3058,26.95,88,79,3.82,BD,1686590115
827,caluula,11.9661,50.7569,31.65,67,54,3.48,SO,1686590115
828,quesnel,52.9999,-122.5029,18.28,48,0,1.03,CA,1686589930
829,mulanje,-16.0316,35.5,20.4,54,69,1.05,MW,1686590115
830,nieuw amsterdam,5.8833,-55.0833,33.34,69,42,3.1,SR,1686590116
831,diapaga,12.0708,1.7889,30.8,53,91,3.11,BF,1686590116
832,leninsk,48.7119,45.1994,24.48,45,99,9.0,RU,1686590116
833,deta,45.3889,21.2244,19.92,94,100,1.29,RO,1686590116
834,kenora,49.8167,-94.4337,23.54,38,40,2.06,CA,1686589924
835,galveston,29.3669,-94.9669,34.46,71,3,1.79,US,1686590117
836,kurtamysh,54.9103,64.4319,12.07,51,99,2.08,RU,1686590117
837,ribadesella,43.4614,-5.0596,21.64,87,100,1.3,ES,1686590118
838,asosa,10.0667,34.5333,17.65,86,100,0.47,ET,1686590118
839,zouerate,22.7187,-12.4521,35.98,13,13,5.57,MR,1686590118
840,blackfoot,43.1905,-112.345,20.59,57,95,1.18,US,1686590118
841,ginir,7.1333,40.7,15.73,85,99,1.76,ET,1686590119
842,badagry,6.4167,2.8833,27.43,72,29,4.14,NG,1686590119
843,upington,-28.4478,21.2561,13.21,50,40,3.09,ZA,1686590119
844,arar,30.9753,41.0381,34.01,12,0,6.69,SA,1686590119
845,borba,-4.3878,-59.5939,32.55,54,7,2.09,BR,1686590119
846,kirkwall,58.9848,-2.9587,16.03,82,0,2.06,GB,1686590120
847,misliyah,17.4599,42.5572,37.74,31,80,2.48,SA,1686590120
848,erdenet,49.0333,104.0833,17.22,51,81,0.71,MN,1686590120
849,kaduna,10.5222,7.4383,25.94,69,95,2.83,NG,1686590120
850,bam,29.106,58.357,33.01,22,100,4.25,IR,1686590121
851,altai,46.3722,96.2583,17.76,45,68,2.08,MN,1686590121
852,bibiani,6.4635,-2.3194,25.62,76,87,1.57,GH,1686590121
853,woods creek,47.8787,-121.8985,23.27,69,7,1.79,US,1686590121
854,mimizan,44.2006,-1.2289,25.36,62,100,3.05,FR,1686590122
855,rumoi,43.9344,141.6428,13.91,96,57,2.66,JP,1686590122
856,novyy urgal,51.0736,132.5642,13.22,87,37,0.96,RU,1686590122
857,rouissat,31.9243,5.3502,40.04,13,0,6.17,DZ,1686590122
858,ishigaki,24.3448,124.1572,25.07,100,75,1.54,JP,1686590122
859,tayaman,13.2295,120.5726,27.64,77,100,2.91,PH,1686590123
860,filadelfia,39.9523,-75.1638,28.99,61,75,6.17,US,1686589918
861,uyskoye,54.3775,60.0047,8.99,91,100,1.96,RU,1686590123
862,malindi,-3.2175,40.1191,25.7,80,17,7.08,KE,1686590123
863,bovalino,38.149,16.174,24.94,74,93,2.41,IT,1686590124
864,kargasok,59.0556,80.8572,7.87,67,22,3.65,RU,1686590124
865,mahuta,-10.8667,39.45,18.97,70,6,1.63,TZ,1686590124
866,kuraymah,18.55,31.85,38.94,18,25,1.53,SD,1686590124
867,den burg,53.0542,4.7972,25.56,78,75,5.66,NL,1686590125
868,woolgoolga,-30.1106,153.2007,14.93,89,19,3.12,AU,1686590125
869,puerto baquerizo moreno,-0.9,-89.6,27.55,78,75,6.69,EC,1686590125
870,santa cruz,-17.8,-63.1667,12.32,43,100,6.01,BO,1686590050
871,kihangara,-2.5833,33.35,22.15,70,68,2.92,TZ,1686590127
872,jessheim,60.1415,11.1752,23.99,29,0,5.66,NO,1686590128
873,rancho palos verdes,33.7445,-118.387,21.11,80,75,2.68,US,1686589860
874,benghazi,32.1167,20.0667,23.15,70,0,6.6,LY,1686590128
875,el achir,36.0639,4.6274,24.69,45,56,4.48,DZ,1686590128
876,nha trang,12.25,109.1833,30.0,75,96,1.95,VN,1686590095
877,labrador city,52.9463,-66.9114,19.95,26,75,4.12,CA,1686590129
878,guarapari,-20.6667,-40.4975,28.27,62,0,6.08,BR,1686590129
879,lazaro cardenas,17.9583,-102.2,30.58,56,10,3.66,MX,1686590129
880,kismayo,-0.3582,42.5454,25.85,79,56,6.36,SO,1686590130
881,puerto aysen,-45.4,-72.7,8.02,66,40,0.0,CL,1686590130
882,richards bay,-28.783,32.0377,21.51,67,84,5.49,ZA,1686590130
883,vallenar,-28.5708,-70.7581,17.53,51,2,3.04,CL,1686590130
884,wellington,-41.2866,174.7756,6.81,97,0,2.57,NZ,1686590005
885,yamada,39.4667,141.95,16.24,98,100,1.07,JP,1686590131
886,ndele,8.4109,20.6473,24.16,83,63,2.0,CF,1686590131
887,george town,5.4112,100.3354,30.53,77,20,3.09,MY,1686590131
888,tralee,52.2704,-9.7026,20.14,68,0,3.09,IE,1686590131
889,ayutuxtepeque,13.7456,-89.2064,30.03,86,52,0.61,SV,1686590131
890,chernushka,56.5072,56.0766,9.46,65,99,2.89,RU,1686590132
891,qui nhon,13.7667,109.2333,28.98,70,100,4.09,VN,1686590132
892,hazorasp,41.3194,61.0742,25.91,13,0,5.13,UZ,1686590132
893,argo,37.6333,22.7333,23.77,74,99,0.63,GR,1686590132
894,miramar beach,30.3744,-86.3586,32.35,80,0,4.12,US,1686590132
895,santiago de cao,-7.9589,-79.2392,24.07,73,36,6.69,PE,1686590133
896,port blair,11.6667,92.75,26.02,94,75,4.12,IN,1686590133
897,san felice circeo,41.2372,13.0942,26.2,73,3,3.56,IT,1686590133
898,hovd,48.0056,91.6419,18.99,34,62,3.08,MN,1686590134
899,baiyin,36.5583,104.2081,20.27,25,59,1.76,CN,1686590134
900,eyl,7.9803,49.8164,26.98,75,99,11.03,SO,1686590134
901,shalqar,47.8333,59.6,28.09,15,95,4.09,KZ,1686590134
902,collie,-33.3667,116.15,9.79,96,33,1.5,AU,1686590134
903,champerico,14.3,-91.9167,33.3,68,77,4.01,GT,1686590135
904,mineros,-17.1167,-63.2333,11.05,70,100,4.72,BO,1686590135
905,inazawa,35.25,136.7833,21.73,96,75,0.51,JP,1686590135
906,natal,-5.795,-35.2094,27.12,89,75,5.14,BR,1686589983
907,tweed heads,-28.1817,153.547,14.42,100,75,0.51,AU,1686590136
908,china,25.7,-99.2333,34.93,48,3,4.33,MX,1686590111
909,labasa,-16.4167,179.3833,22.45,92,65,2.85,FJ,1686590136
910,engel's,51.5,46.1167,13.59,48,99,4.47,RU,1686590136
911,mahina,-17.5065,-149.489,22.87,78,20,1.03,PF,1686590136
912,altus,34.6381,-99.334,20.73,82,100,6.69,US,1686590137
913,staroaleyskoye,51.0061,82.0,13.98,70,2,2.71,RU,1686590137
914,baruun-urt,46.6806,113.2792,18.06,39,71,0.93,MN,1686590137
915,olinda,-8.0089,-34.8553,28.85,70,40,6.17,BR,1686590137
916,nogliki,51.8333,143.1667,4.21,100,100,1.93,RU,1686590138
917,tyuratam,45.6507,63.3156,29.2,13,47,5.08,KZ,1686590138
918,antofagasta,-23.65,-70.4,16.6,71,61,5.5,CL,1686589926
919,arroyo,41.6096,-4.7969,21.02,62,20,4.12,ES,1686590138
920,ar ruways,24.1103,52.7306,33.39,43,13,2.88,AE,1686590139
921,san borja,-14.8167,-66.85,15.72,94,100,3.17,BO,1686590139
922,calp,38.6447,0.0445,26.71,78,100,5.05,ES,1686590139
923,grand falls-windsor,48.9332,-55.6649,9.17,89,100,1.79,CA,1686590139
924,ballina,-28.8667,153.5667,13.21,90,29,2.43,AU,1686590139
925,beatrice,40.2681,-96.747,22.88,35,0,4.12,US,1686590140
926,sittwe,20.15,92.9,27.85,81,58,4.57,MM,1686590140
927,madaoua,14.073,5.96,35.82,33,59,4.4,NE,1686590140
928,ghat,24.9647,10.1728,39.96,9,0,6.57,LY,1686590140
929,moneteau,47.8492,3.5818,27.62,55,35,3.34,FR,1686590141
930,paulden,34.8856,-112.4682,22.58,36,1,3.58,US,1686590141
931,villamontes,-21.25,-63.5,14.78,28,100,4.44,BO,1686590141
932,mitu,1.1983,-70.1733,32.89,48,49,1.57,CO,1686590141
933,kertih,4.5141,103.4483,25.01,94,38,0.0,MY,1686590142
934,yiyang,28.5892,112.3283,23.05,85,100,1.53,CN,1686590142
935,kotabumi,-4.8333,104.9,23.82,95,64,2.05,ID,1686590142
936,longview,32.5007,-94.7405,32.14,78,100,3.09,US,1686590111
937,revda,56.801,59.9303,7.67,62,99,2.2,RU,1686590142
938,yerofey pavlovich,53.9667,121.9667,12.92,76,100,3.39,RU,1686590133
939,borsa,47.6553,24.6633,10.23,91,100,2.38,RO,1686590143
940,dompu,-8.5356,118.4622,21.76,93,36,1.57,ID,1686590143
941,fada,9.5667,8.3,22.95,88,88,1.85,NG,1686590143
942,pervomayskoye,43.919,46.7102,23.54,47,74,3.12,RU,1686590143
943,touros,-5.1989,-35.4608,28.77,67,23,5.98,BR,1686590144
944,miri,4.4148,114.0089,25.08,94,40,3.6,MY,1686590144
945,summerland,49.5998,-119.6691,26.97,48,20,4.63,CA,1686590144
946,tucurui,-3.7661,-49.6725,31.49,58,12,1.66,BR,1686590144
